{"type": "010100", "poi": [{"name": "中国石化北京站加油站", "district": "东城区", "address": "北京站西街3号", "lat": "39.904078", "lng": "116.422919", "business_area": "[]", "id": "﻿B000A83JV4"}, {"name": "中国石油加油站(安定门东大街)", "district": "东城区", "address": "安定门桥东北角", "lat": "39.949573", "lng": "116.411404", "business_area": "和平里", "id": "B000A95CN7"}, {"name": "中国石油加油站(天坛东路)", "district": "东城区", "address": "天坛东路76号", "lat": "39.87665", "lng": "116.421769", "business_area": "[]", "id": "B000A81A9M"}, {"name": "中国石化(和平里北街加油站)", "district": "东城区", "address": "和平里北街23号", "lat": "39.959467", "lng": "116.411656", "business_area": "和平里", "id": "B0FFG7H7NX"}, {"name": "中国石化富友加油站(装修中)", "district": "东城区", "address": "安定门外大街11号", "lat": "39.961326", "lng": "116.405698", "business_area": "安定门", "id": "B000A7W38C"}, {"name": "中国石化天利加油站", "district": "东城区", "address": "永定门东滨河路11号", "lat": "39.871684", "lng": "116.410204", "business_area": "[]", "id": "B000A7VNF4"}, {"name": "中国石化(大立加油站)", "district": "东城区", "address": "左安门内大街甲2号", "lat": "39.876135", "lng": "116.439597", "business_area": "[]", "id": "B000A80OS0"}, {"name": "中国石油加油站", "district": "东城区", "address": "青年湖北街3号", "lat": "39.959145", "lng": "116.405259", "business_area": "安定门", "id": "B000A95CM0"}, {"name": "中国石化沙子口加油站", "district": "东城区", "address": "永定门外大街146号", "lat": "39.863414", "lng": "116.400777", "business_area": "[]", "id": "B000A83CC7"}, {"name": "中国石化崇文门加油站", "district": "东城区", "address": "崇文门东大街甲22号", "lat": "39.900277", "lng": "116.421266", "business_area": "[]", "id": "B0FFILX8Q6"}, {"name": "中国石油加油站(安定门西大街)", "district": "东城区", "address": "安定门桥西北角", "lat": "39.949486", "lng": "116.406013", "business_area": "安定门", "id": "B000A96HCL"}, {"name": "中国石化宣武门加油站", "district": "西城区", "address": "宣武门东大街16号楼北侧", "lat": "39.89975", "lng": "116.378757", "business_area": "宣武门", "id": "B0FFFTI0P8"}, {"name": "中国石化金融街加油站", "district": "西城区", "address": "太平桥大街113号", "lat": "39.9123", "lng": "116.362768", "business_area": "复兴门", "id": "B000A7YW28"}, {"name": "中国石油南下路加油站", "district": "西城区", "address": "菜市口大街26号", "lat": "39.877338", "lng": "116.373786", "business_area": "白纸坊", "id": "B000A57C62"}, {"name": "中国石油加油站(阜成门南大街)", "district": "西城区", "address": "月坛南街甲1号", "lat": "39.916357", "lng": "116.356102", "business_area": "月坛", "id": "B000AA4WYM"}, {"name": "中国石油北汽加油站", "district": "西城区", "address": "宣武门西大街2号楼东", "lat": "39.899313", "lng": "116.373202", "business_area": "宣武门", "id": "B0FFHTYX3O"}, {"name": "中国石化西便门加油站", "district": "西城区", "address": "月坛白云观街", "lat": "39.899244", "lng": "116.347823", "business_area": "天宁寺", "id": "B000A7B21F"}, {"name": "中国石化展览路加油站", "district": "西城区", "address": "展览馆路34号", "lat": "39.927021", "lng": "116.344403", "business_area": "百万庄", "id": "B000A16F5C"}, {"name": "中国石油北京市石运加油站", "district": "西城区", "address": "广安门外马连道9号", "lat": "39.886652", "lng": "116.325116", "business_area": "广安门", "id": "B000A7W3W3"}, {"name": "中国石化陶然桥加油站", "district": "西城区", "address": "右安门东街13号", "lat": "39.871811", "lng": "116.383771", "business_area": "[]", "id": "B0FFH0PADH"}, {"name": "中国石化(牛街加油站)", "district": "西城区", "address": "右安门内大街2号", "lat": "39.882684", "lng": "116.363971", "business_area": "白纸坊", "id": "B000A87ENZ"}, {"name": "阳光石油加油站", "district": "西城区", "address": "广安门外大街242号", "lat": "39.889264", "lng": "116.335848", "business_area": "广安门", "id": "B0FFG734EE"}, {"name": "中国石化加油站(教场胡同)", "district": "西城区", "address": "地安门西大街教场口胡同26号", "lat": "39.93297", "lng": "116.386673", "business_area": "北海", "id": "B000A83HSC"}, {"name": "中国石油加油站(广安门车站西街)", "district": "西城区", "address": "手帕口南街80号", "lat": "39.882730", "lng": "116.341897", "business_area": "广安门", "id": "B0FFFAHL58"}, {"name": "中国石化安顺成加油站", "district": "西城区", "address": "南滨河路71号", "lat": "39.875151", "lng": "116.348499", "business_area": "菜户营", "id": "B000A84ACQ"}, {"name": "中国石化牛街加油站", "district": "西城区", "address": "右安门内大街2号", "lat": "39.882691", "lng": "116.364023", "business_area": "白纸坊", "id": "B0FFHX8WHS"}, {"name": "中国石化加油站(装修中)", "district": "西城区", "address": "德胜门西大街甲68号", "lat": "39.947408", "lng": "116.368874", "business_area": "西直门", "id": "B0FFF58QT2"}, {"name": "中国石油服务区滨河加油站", "district": "西城区", "address": "菜户营甲7号", "lat": "39.874886", "lng": "116.3497", "business_area": "菜户营", "id": "B0FFGC4J4G"}, {"name": "中国石油首汽加油站", "district": "朝阳区", "address": "左家庄新源里南路甲7号", "lat": "39.948861", "lng": "116.453983", "business_area": "左家庄", "id": "B000A95CH4"}, {"name": "大力士加油站", "district": "朝阳区", "address": "顺黄路20号(近顺黄路)", "lat": "40.054931", "lng": "116.538155", "business_area": "[]", "id": "B000A875ND"}, {"name": "中国石油加油站", "district": "朝阳区", "address": "北四环东路辅路", "lat": "39.972413", "lng": "116.466234", "business_area": "太阳宫村", "id": "B000A7PI8R"}, {"name": "中国石化加油站(中旅望京站)", "district": "朝阳区", "address": "湖光中街9号", "lat": "39.997564", "lng": "116.465605", "business_area": "望京", "id": "B000A836QJ"}, {"name": "众生中油加油站", "district": "朝阳区", "address": "东四环南路1号院内窑洼湖桥西南角", "lat": "39.882025", "lng": "116.488602", "business_area": "南磨房", "id": "B000A81KNC"}, {"name": "中国石化劲松加油站", "district": "朝阳区", "address": "潘家园", "lat": "39.878493", "lng": "116.44672", "business_area": "劲松", "id": "B000A83D0S"}, {"name": "龙瑞森石化加油站(十八里店站)", "district": "朝阳区", "address": "东四环南路与大羊坊路交叉口东150米", "lat": "39.848072", "lng": "116.485864", "business_area": "十八里店", "id": "B0FFH73I8X"}, {"name": "中国石油中福加油站(装修中)", "district": "朝阳区", "address": "S50北五环辅路(北苑路甲1号院)", "lat": "40.022874", "lng": "116.418275", "business_area": "来广营", "id": "B000A80THG"}, {"name": "中国石油北汽东郊加油站", "district": "朝阳区", "address": "酒仙桥东路1号", "lat": "39.974028", "lng": "116.499951", "business_area": "酒仙桥", "id": "B000A7TK3M"}, {"name": "中国石化服务区加油站", "district": "朝阳区", "address": "东四环南路25号", "lat": "39.871771", "lng": "116.488542", "business_area": "南磨房", "id": "B000A81GS9"}, {"name": "旺平东加油站", "district": "朝阳区", "address": "东坝中路114号", "lat": "39.950055", "lng": "116.546639", "business_area": "东坝", "id": "B000A87VGG"}, {"name": "中国石化小营加油站", "district": "朝阳区", "address": "北四环东路104号", "lat": "39.988180", "lng": "116.422726", "business_area": "小关", "id": "B000A81K64"}, {"name": "中国石油望京南加油站", "district": "朝阳区", "address": "广泽桥东200米", "lat": "40.013629", "lng": "116.482379", "business_area": "望京", "id": "B000A83MIQ"}, {"name": "中国能源朝平加油站", "district": "朝阳区", "address": "黄杉木店路与朝阳北路交叉处西北角", "lat": "39.924135", "lng": "116.527363", "business_area": "[]", "id": "B000A00B04"}, {"name": "中国石化十里河加油站(东三环南路辅路加油站)", "district": "朝阳区", "address": "东三环南路88-1号", "lat": "39.868413", "lng": "116.461579", "business_area": "十八里店", "id": "B000A698F9"}, {"name": "中国石油望京北加油站", "district": "朝阳区", "address": "来广营服务区", "lat": "40.014072", "lng": "116.485094", "business_area": "望京", "id": "B000A83K20"}, {"name": "石五联加油站", "district": "朝阳区", "address": "西大望路20号", "lat": "39.898836", "lng": "116.476907", "business_area": "百子湾", "id": "B000A7HWBT"}, {"name": "中国石油北苑加油站", "district": "朝阳区", "address": "北苑东路350号", "lat": "40.027736", "lng": "116.441106", "business_area": "来广营", "id": "B000A80THH"}, {"name": "中国石油加油站(G1辅路)", "district": "朝阳区", "address": "五方桥西京沈高速南侧", "lat": "39.868429", "lng": "116.54386", "business_area": "[]", "id": "B000A8618N"}, {"name": "中国石化服务区加油站", "district": "朝阳区", "address": "南四环东路2号(四环主路边上十八里店南桥与北桥之间)", "lat": "39.841113", "lng": "116.477238", "business_area": "小红门", "id": "B000A80RR5"}, {"name": "中国石化北苑路加油站", "district": "朝阳区", "address": "北苑路182号", "lat": "39.994062", "lng": "116.416446", "business_area": "北辰", "id": "B000A7VNEQ"}, {"name": "壳牌加油站(大郊亭站)", "district": "朝阳区", "address": "石门村路与广渠路交叉口东北角", "lat": "39.893564", "lng": "116.499054", "business_area": "南磨房", "id": "B0FFFEM2XN"}, {"name": "中国石化加油站", "district": "朝阳区", "address": "芳园南街(丽都水岸对面)", "lat": "39.967828", "lng": "116.4845", "business_area": "酒仙桥", "id": "B000A80GRI"}, {"name": "中国石油服务区加油站", "district": "朝阳区", "address": "东四环北路", "lat": "39.951896", "lng": "116.489365", "business_area": "[]", "id": "?B000A836B1"}, {"name": "壳牌加油站(东辛店站)", "district": "朝阳区", "address": "京顺路北皋红绿灯路口西南角", "lat": "40.011753", "lng": "116.511811", "business_area": "[]", "id": "B000A81KVT"}, {"name": "中国石油加油站", "district": "朝阳区", "address": "大屯路甲21号", "lat": "40.002892", "lng": "116.403901", "business_area": "北辰", "id": "B000A60F76"}, {"name": "中国石化加油站", "district": "朝阳区", "address": "康营东路(财富公馆南)", "lat": "40.030325", "lng": "116.551764", "business_area": "[]", "id": "B000A7W3UV"}, {"name": "中国石化小红门加油站", "district": "朝阳区", "address": "南四环东路53号", "lat": "39.834151", "lng": "116.461384", "business_area": "小红门", "id": "B000A7742C"}, {"name": "中国石化加油站", "district": "朝阳区", "address": "东五环", "lat": "39.887482", "lng": "116.548680", "business_area": "[]", "id": "B000A81GXE"}, {"name": "中国石化博大路加油站", "district": "朝阳区", "address": "十八里店南桥", "lat": "39.836853", "lng": "116.472129", "business_area": "小红门", "id": "B000A7SOQY"}, {"name": "腾远加油站", "district": "朝阳区", "address": "酒仙桥路52号", "lat": "39.960703", "lng": "116.49759", "business_area": "酒仙桥", "id": "B000A7QIMU"}, {"name": "中国石化羊坊北加油站", "district": "朝阳区", "address": "洼里乡羊坊村安立路", "lat": "40.040813", "lng": "116.412271", "business_area": "来广营", "id": "B000A87ELS"}, {"name": "中国石化(左家庄加油站)(装修中)", "district": "朝阳区", "address": "香河园路2号", "lat": "39.955748", "lng": "116.449562", "business_area": "左家庄", "id": "B000A7GDDE"}, {"name": "东苇路加油站", "district": "朝阳区", "address": "楼梓庄路与东苇路交叉口北路东", "lat": "39.978714", "lng": "116.571465", "business_area": "东坝", "id": "B000A8XMEI"}, {"name": "中国石油南湖加油站", "district": "朝阳区", "address": "北四环东路17号", "lat": "39.97983", "lng": "116.457636", "business_area": "望京", "id": "B000A83LIA"}, {"name": "中国石化加油站", "district": "朝阳区", "address": "建国路2号", "lat": "39.907599", "lng": "116.607957", "business_area": "[]", "id": "B000A80RVC"}, {"name": "中国石油加油站(北四环中路辅路)", "district": "朝阳区", "address": "健翔桥东500米(亚运村)", "lat": "39.987678", "lng": "116.384771", "business_area": "[]", "id": "B000A80E3I"}, {"name": "壳牌加油站(管庄站)", "district": "朝阳区", "address": "京通快速路辅路双会桥西1000米(世通国际大厦下)", "lat": "39.910121", "lng": "116.586965", "business_area": "[]", "id": "B000A8XS3H"}, {"name": "中国石化(白家庄加油站)", "district": "朝阳区", "address": "团结湖白家庄东里甲23号", "lat": "39.928662", "lng": "116.464882", "business_area": "呼家楼", "id": "B000A80G29"}, {"name": "中国石化兴达加油站(广渠路)(装修中)", "district": "朝阳区", "address": "广渠东路(方家村污水处理厂西侧)", "lat": "39.893388", "lng": "116.520806", "business_area": "高碑店村", "id": "B000A80RVH"}, {"name": "中化道达尔光华路加油站", "district": "朝阳区", "address": "郎家园西路", "lat": "39.913816", "lng": "116.472093", "business_area": "建外大街", "id": "B0FFIDCOMP"}, {"name": "朝普加油站", "district": "朝阳区", "address": "高碑店乡太平庄甲1号", "lat": "39.917473", "lng": "116.53028", "business_area": "高碑店村", "id": "B000A87SMB"}, {"name": "中化道达尔太阳宫加油站", "district": "朝阳区", "address": "北四环东路与望京西路交叉口西北200米", "lat": "39.982182", "lng": "116.453971", "business_area": "望京", "id": "B0FFHQG1KG"}, {"name": "中国石化惠忠寺加油站", "district": "朝阳区", "address": "安惠北里321号", "lat": "39.996357", "lng": "116.408672", "business_area": "北辰", "id": "B000A7W38M"}, {"name": "中国石化祁家豁子加油站(G6辅路)", "district": "朝阳区", "address": "G6辅路", "lat": "39.978189", "lng": "116.381649", "business_area": "祁家豁子", "id": "B000A80E4D"}, {"name": "中国石化青年路加油站(朝阳路辅路)", "district": "朝阳区", "address": "朝阳路与青年路交叉口西边100米路北", "lat": "39.916639", "lng": "116.516061", "business_area": "甘露园", "id": "B000A7YW2D"}, {"name": "中国石油华威路加油站", "district": "朝阳区", "address": "劲松南路3号", "lat": "39.882208", "lng": "116.459104", "business_area": "劲松", "id": "B000A7PE6B"}, {"name": "中国石化北沙滩加油站", "district": "朝阳区", "address": "红星美凯龙北侧", "lat": "40.005246", "lng": "116.368065", "business_area": "林萃", "id": "B000A95CDM"}, {"name": "中国石化加油站(朝阳路辅路)", "district": "朝阳区", "address": "甘露园西里8号", "lat": "39.916531", "lng": "116.509913", "business_area": "甘露园", "id": "?B000A7W36S"}, {"name": "中国石化望京新城奥顺加油站", "district": "朝阳区", "address": "宏昌路与宏泰西街交汇处", "lat": "40.001357", "lng": "116.472293", "business_area": "望京", "id": "B000A84IAC"}, {"name": "中国石油燕鑫兆元加油站", "district": "朝阳区", "address": "百子湾路27号", "lat": "39.900775", "lng": "116.484131", "business_area": "百子湾", "id": "B000A57FDA"}, {"name": "中国石化姚家园加油站", "district": "朝阳区", "address": "姚家园路苇子坑100号", "lat": "39.933561", "lng": "116.494000", "business_area": "[]", "id": "B000A00995"}, {"name": "中国石油庆轩加油站(来广营西路)", "district": "朝阳区", "address": "来广营西路14号", "lat": "40.020744", "lng": "116.450615", "business_area": "来广营", "id": "B000A80THI"}, {"name": "广开源加油站", "district": "朝阳区", "address": "北四环东路辅路", "lat": "39.986489", "lng": "116.44757", "business_area": "望京", "id": "B0FFFAIXDA"}, {"name": "中国石油豆各庄加油站", "district": "朝阳区", "address": "豆各庄乡孙家坡村北(大鲁店北路附近)", "lat": "39.845464", "lng": "116.549582", "business_area": "豆各庄村", "id": "B000A01988"}, {"name": "中国石油加油站(浩运园主场西北)(装修中)", "district": "朝阳区", "address": "大屯路238号", "lat": "40.00225", "lng": "116.420901", "business_area": "[]", "id": "B000A80TFO"}, {"name": "中国石化燕鑫加油站", "district": "朝阳区", "address": "麦子店正街甲80号", "lat": "39.94581", "lng": "116.474569", "business_area": "[]", "id": "B000A7W3W8"}, {"name": "中国石化加油站", "district": "朝阳区", "address": "西大望路24号", "lat": "39.890992", "lng": "116.476941", "business_area": "劲松", "id": "B0FFFSINLR"}, {"name": "中国石油(开研加油站)", "district": "朝阳区", "address": "东风南路20号(朝阳气象局旁)", "lat": "39.954305", "lng": "116.505056", "business_area": "[]", "id": "B000A7W38A"}, {"name": "中国石油首汽加油站(霄云路)", "district": "朝阳区", "address": "霄云路甲5号", "lat": "39.963296", "lng": "116.469116", "business_area": "[]", "id": "B000A487FC"}, {"name": "中国石油晓景加油站", "district": "朝阳区", "address": "金盏乡", "lat": "39.940646", "lng": "116.589582", "business_area": "[]", "id": "B000A80IIH"}, {"name": "中国石油首汽加油站", "district": "朝阳区", "address": "花家地南里小区甲2号", "lat": "39.978368", "lng": "116.472641", "business_area": "望京", "id": "B0FFG7GXYR"}, {"name": "中国石化加油站(顺黄路)", "district": "朝阳区", "address": "来广营北路166号", "lat": "40.057024", "lng": "116.463174", "business_area": "来广营", "id": "B000A83XM4"}, {"name": "中国石化龙禹太阳宫加油站(太阳宫中路)", "district": "朝阳区", "address": "太阳宫中路4号", "lat": "39.978087", "lng": "116.453097", "business_area": "太阳宫村", "id": "B000A7YW1S"}, {"name": "中国石化东储加油站(小营路)", "district": "朝阳区", "address": "小营路6号", "lat": "39.996841", "lng": "116.424653", "business_area": "[]", "id": "B000A7Y8WY"}, {"name": "中国石化京石房加油站(装修中)", "district": "朝阳区", "address": "北四环东路101号", "lat": "39.991155", "lng": "116.423638", "business_area": "惠新", "id": "B000A604C3"}, {"name": "中国石油加油站(东苇路)", "district": "朝阳区", "address": "金盏乡东苇路", "lat": "40.025503", "lng": "116.555346", "business_area": "[]", "id": "B000A52B9A"}, {"name": "中国石油加油站", "district": "朝阳区", "address": "东四环北路与服务区交叉口东北50米", "lat": "39.951804", "lng": "116.490044", "business_area": "[]", "id": "B0FFGB060V"}, {"name": "中国石油首汽第8加油站", "district": "朝阳区", "address": "霄云路24号", "lat": "39.961456", "lng": "116.468234", "business_area": "亮马桥", "id": "B000A1CAAA"}, {"name": "中国石化快洁加油站", "district": "朝阳区", "address": "广渠路甲34号院", "lat": "39.892935", "lng": "116.470151", "business_area": "劲松", "id": "B000A87NDF"}, {"name": "中化吉利北苑加油站", "district": "朝阳区", "address": "北苑路17号", "lat": "40.024105", "lng": "116.417155", "business_area": "[]", "id": "B0FFHLRGN5"}, {"name": "壳牌十八里店加油站", "district": "朝阳区", "address": "大羊坊路108号", "lat": "39.855053", "lng": "116.47749", "business_area": "十八里店", "id": "B000A83D18"}, {"name": "中国石化加油站", "district": "朝阳区", "address": "东五环", "lat": "39.887441", "lng": "116.547550", "business_area": "高碑店村", "id": "B0FFG6CWHP"}, {"name": "中国石化加油站(驹子房路)", "district": "朝阳区", "address": "驹子房路与滨河路交叉口向西路北,东坝家园附近", "lat": "39.97108", "lng": "116.556665", "business_area": "东坝", "id": "?B000A81K81"}, {"name": "中国石化朝英加油站", "district": "朝阳区", "address": "十八里店东四环外小武基路172号", "lat": "39.863864", "lng": "116.493476", "business_area": "十八里店", "id": "B0FFG59U2W"}, {"name": "中国石油首汽加油站(永安里中街)", "district": "朝阳区", "address": "建国门外大街灵通观1号", "lat": "39.906856", "lng": "116.445652", "business_area": "建国门", "id": "B000A39ADA"}, {"name": "中国石油来广营加油站", "district": "朝阳区", "address": "来广营乡来广营北路", "lat": "40.023957", "lng": "116.461413", "business_area": "来广营", "id": "B000A95C5J"}, {"name": "中国石化兆元加油站", "district": "朝阳区", "address": "姚家园路苇子坑99号", "lat": "39.934779", "lng": "116.495722", "business_area": "[]", "id": "B0FFG75UJW"}, {"name": "中国石油加油站", "district": "朝阳区", "address": "左安路与东三环南路辅路交叉口西南角", "lat": "39.866480", "lng": "116.457236", "business_area": "十八里店", "id": "B000A83KJE"}, {"name": "中国石化加油站(G1辅路)", "district": "朝阳区", "address": "黄厂路甲1号附近", "lat": "39.868212", "lng": "116.554058", "business_area": "豆各庄村", "id": "B0FFHTJD7X"}, {"name": "旺泰宏达加油站", "district": "朝阳区", "address": "雷庄村258", "lat": "40.002898", "lng": "116.587014", "business_area": "[]", "id": "B000AA7YU0"}, {"name": "中国石化加油站(北苑路)", "district": "朝阳区", "address": "大屯乡慧忠路与小营西路交叉处欧陆经典对面", "lat": "39.994030", "lng": "116.416455", "business_area": "北辰", "id": "B0FFF9RE4Z"}, {"name": "道达尔东苇路油站", "district": "朝阳区", "address": "东苇路4附近", "lat": "40.002340", "lng": "116.565064", "business_area": "[]", "id": "B0FFHFQASJ"}, {"name": "中国石化南辛庄加油站", "district": "朝阳区", "address": "南四环东路72号院1号", "lat": "39.832001", "lng": "116.451949", "business_area": "小红门", "id": "B0FFGAQN9W"}, {"name": "中化道达尔", "district": "朝阳区", "address": "东苇路4附近", "lat": "40.002428", "lng": "116.565155", "business_area": "[]", "id": "B000A883VY"}, {"name": "崔各庄加油站", "district": "朝阳区", "address": "东辛店路与来广营东路交汇处东50米", "lat": "40.022264", "lng": "116.49482", "business_area": "来广营", "id": "B0FFG8W007"}, {"name": "中福石油加油站(豆各庄站)", "district": "朝阳区", "address": "星火西路与姚家园路交叉口东北角", "lat": "39.936871", "lng": "116.502297", "business_area": "[]", "id": "B0FFIPT7J0"}, {"name": "中国石化实润加油站", "district": "朝阳区", "address": "亮马桥路10号", "lat": "39.95616", "lng": "116.484351", "business_area": "亮马桥", "id": "B000A84A98"}, {"name": "中国石化将台东路加油站", "district": "朝阳区", "address": "将台东路", "lat": "39.978026", "lng": "116.527870", "business_area": "[]", "id": "B0FFIYFOKT"}, {"name": "中国石化石银加油站(装修中)", "district": "朝阳区", "address": "吕营大街", "lat": "39.856674", "lng": "116.4633", "business_area": "十八里店", "id": "B0FFH7UYBA"}, {"name": "中国石化加油站(北四环东路)", "district": "朝阳区", "address": "高原街乙2号", "lat": "39.988578", "lng": "116.429487", "business_area": "小关", "id": "B000AAEKQJ"}, {"name": "中国石化(双桥加油站)", "district": "朝阳区", "address": "双桥中路双桥中学对面", "lat": "39.893179", "lng": "116.589301", "business_area": "[]", "id": "B000A95C63"}, {"name": "中国石油天诚金龙加油站", "district": "朝阳区", "address": "成寿寺路141号", "lat": "39.840549", "lng": "116.446424", "business_area": "小红门", "id": "B000A81A6L"}, {"name": "中国石油东窑丽宇加油站", "district": "朝阳区", "address": "金盏路南50米", "lat": "39.996626", "lng": "116.599144", "business_area": "[]", "id": "B0FFG9K40E"}, {"name": "中国石化北京朝阳高井加油站", "district": "朝阳区", "address": "兴隆东街与102国道交汇处的东南方", "lat": "39.915691", "lng": "116.538098", "business_area": "高碑店村", "id": "B0FFG41WPC"}, {"name": "中国石化平房加油站(平房路)", "district": "朝阳区", "address": "东五环与平房路交汇处北路东", "lat": "39.943385", "lng": "116.542901", "business_area": "东坝", "id": "B0FFG73JJG"}, {"name": "北京草场地加油站(装修中)", "district": "朝阳区", "address": "东辛店村", "lat": "40.007856", "lng": "116.507697", "business_area": "[]", "id": "B0FFG8W0BZ"}, {"name": "中国石化宝捷森加油站(建国路)", "district": "朝阳区", "address": "建国路甲8号", "lat": "39.909233", "lng": "116.574121", "business_area": "[]", "id": "B0FFG7BL5V"}, {"name": "大山子环岛加油站", "district": "朝阳区", "address": "酒仙桥路13号(乐天玛特超市北面路西)", "lat": "39.978961", "lng": "116.489174", "business_area": "酒仙桥", "id": "?B000A7YW1Y"}, {"name": "东营加油站", "district": "朝阳区", "address": "南四环东路2号", "lat": "39.83937", "lng": "116.472985", "business_area": "小红门", "id": "B0FFG090EF"}, {"name": "益鸣加油站", "district": "朝阳区", "address": "南磨房", "lat": "39.857576", "lng": "116.519131", "business_area": "十八里店", "id": "B0FFG72JS8"}, {"name": "中国石化三间房加油站(朝阳路辅路)", "district": "朝阳区", "address": "三间房朝阳路与定福庄路交叉口(生物制品研究所北墙外)", "lat": "39.914931", "lng": "116.572508", "business_area": "[]", "id": "B0FFFTEM18"}, {"name": "中国石油加油站", "district": "朝阳区", "address": "北工大路祁家坟公交站对面", "lat": "39.876605", "lng": "116.485166", "business_area": "南磨房", "id": "B0FFJ69HDA"}, {"name": "中国石油常营加油站", "district": "朝阳区", "address": "朝阳北路24号", "lat": "39.924041", "lng": "116.582538", "business_area": "常营", "id": "B000A95COX"}, {"name": "中油首汽10号站加油站", "district": "朝阳区", "address": "京密路附近", "lat": "40.031173", "lng": "116.528340", "business_area": "[]", "id": "B0FFH8KU3H"}, {"name": "中国石油加油站", "district": "朝阳区", "address": "朝阳北路24号附近", "lat": "39.923781", "lng": "116.582421", "business_area": "常营", "id": "B0FFJH87OP"}, {"name": "中国石化里程加油站(东高路)", "district": "朝阳区", "address": "东高路附近", "lat": "39.935146", "lng": "116.617675", "business_area": "常营", "id": "B000A95CNG"}, {"name": "圣洁明左安路加油站", "district": "朝阳区", "address": "华威南路36路总站", "lat": "39.871712", "lng": "116.456231", "business_area": "劲松", "id": "B0FFG63U2Z"}, {"name": "中国石化龙禹五环加油站", "district": "朝阳区", "address": "北苑村来广营西路与北苑东路交叉口西北角,安雅苑附近", "lat": "40.022445", "lng": "116.436865", "business_area": "来广营", "id": "B000A87KFJ"}, {"name": "中国石化加油站(暂停营业)", "district": "朝阳区", "address": "火沙路", "lat": "40.084966", "lng": "116.469846", "business_area": "北七家", "id": "B000A80SSN"}, {"name": "中国石油加油站(北京明爱双语幼儿园东)", "district": "朝阳区", "address": "[]", "lat": "39.849124", "lng": "116.563457", "business_area": "豆各庄村", "id": "B0FFIT2U38"}, {"name": "中国石油中图能源东坝加油站(装修中)", "district": "朝阳区", "address": "东坝乡东坝中街和驹子房路十字路口东南处70米处", "lat": "39.965074", "lng": "116.557495", "business_area": "东坝", "id": "B000A80III"}, {"name": "中国石化(世纪燕华加油站)", "district": "朝阳区", "address": "崔各庄乡南皋村东路129号", "lat": "40.002685", "lng": "116.522667", "business_area": "[]", "id": "B000A8XLM9"}, {"name": "中国石油加油站(新世纪购物中心东南)", "district": "朝阳区", "address": "金盏乡皮村甲一号村委会东侧", "lat": "39.988331", "lng": "116.636261", "business_area": "[]", "id": "B0FFF2DXP1"}, {"name": "中国石化三间房东路加油站", "district": "朝阳区", "address": "三间房东路142号", "lat": "39.917617", "lng": "116.577720", "business_area": "常营", "id": "B0FFIJYVUB"}, {"name": "中国石化西直河加油站", "district": "朝阳区", "address": "王村路", "lat": "39.850723", "lng": "116.527354", "business_area": "垡头", "id": "B000A01987"}, {"name": "中国石化左家庄加油站(装修中)", "district": "朝阳区", "address": "左家庄", "lat": "39.955732", "lng": "116.449560", "business_area": "左家庄", "id": "B0FFIOXYTO"}, {"name": "中油首汽第7加油站", "district": "朝阳区", "address": "亮马桥路甲3号6号", "lat": "39.957301", "lng": "116.482342", "business_area": "亮马桥", "id": "B000A80EE2"}, {"name": "众生中油霄云桥加油站", "district": "朝阳区", "address": "东四环北路2号", "lat": "39.966812", "lng": "116.477694", "business_area": "酒仙桥", "id": "B000A7YW1X"}, {"name": "中国石化京实永发加油站", "district": "朝阳区", "address": "安外大屯228号", "lat": "40.003424", "lng": "116.418032", "business_area": "[]", "id": "B000A7VT09"}, {"name": "朝顺通泰加油站", "district": "朝阳区", "address": "平房镇石各庄路平安聚源建材家居东边", "lat": "39.939965", "lng": "116.569870", "business_area": "[]", "id": "B0FFJDFXU7"}, {"name": "中国石油伟氏石油加油站(横街子站)", "district": "朝阳区", "address": "大羊坊路与横街子化工宿舍路交叉口西北150米", "lat": "39.827525", "lng": "116.506942", "business_area": "十八里店", "id": "B0FFG733CR"}, {"name": "朝普加油站(朝阳路辅路)", "district": "朝阳区", "address": "朝阳路174号附近", "lat": "39.917437", "lng": "116.530360", "business_area": "高碑店村", "id": "B0FFJHAZCI"}, {"name": "中国石油奥东加油站", "district": "朝阳区", "address": "来广营东路与马泉营西路交汇处东北角", "lat": "40.024262", "lng": "116.506105", "business_area": "来广营", "id": "?B000A95C1N"}, {"name": "中国石油加油站(姚家园路)", "district": "朝阳区", "address": "姚家园路76号", "lat": "39.940988", "lng": "116.527423", "business_area": "[]", "id": "B000A00AD1"}, {"name": "中国石化高桥加油站(装修中)", "district": "朝阳区", "address": "高碑店水闸南侧", "lat": "39.906855", "lng": "116.529830", "business_area": "高碑店村", "id": "B000A87N7Y"}, {"name": "中国石化加油站(双桥路)", "district": "朝阳区", "address": "双桥路与建国路交叉口北100米路西", "lat": "39.911350", "lng": "116.576261", "business_area": "[]", "id": "B000A95CCN"}, {"name": "中国石化盛磊喜力加油站", "district": "朝阳区", "address": "大黄庄平房路", "lat": "39.920477", "lng": "116.542689", "business_area": "高碑店村", "id": "B000A4DFF3"}, {"name": "北京亦顺芳加油站", "district": "朝阳区", "address": "十八里店南小店前街", "lat": "39.831899", "lng": "116.483437", "business_area": "小红门", "id": "B000A762AE"}, {"name": "中化道达尔光华路加油站", "district": "朝阳区", "address": "郎家园西路", "lat": "39.913812", "lng": "116.472091", "business_area": "建外大街", "id": "B000AA7QRJ"}, {"name": "中国石化(东鲁加油站)", "district": "朝阳区", "address": "黑庄户乡大鲁店村通马路", "lat": "39.838223", "lng": "116.598652", "business_area": "[]", "id": "B000A95CGB"}, {"name": "中国石化加油站", "district": "朝阳区", "address": "香江北路甲2号(观唐集团附近)", "lat": "40.034468", "lng": "116.526649", "business_area": "[]", "id": "B000A95C21"}, {"name": "中国石化广泽桥加油站", "district": "朝阳区", "address": "望京利泽东园307号", "lat": "40.013765", "lng": "116.478688", "business_area": "望京", "id": "B000AA89KB"}, {"name": "中化道达尔中北孚星加油站(首都机场辅路)", "district": "朝阳区", "address": "南皋乡北皋村口", "lat": "40.012356", "lng": "116.51638", "business_area": "[]", "id": "B0FFFSOQ5Z"}, {"name": "中化吉利朝阳加油站", "district": "朝阳区", "address": "华威南路与华威路交叉口东北", "lat": "39.872086", "lng": "116.456215", "business_area": "劲松", "id": "B000A7DUF7"}, {"name": "中国石化京侨天燕加油站", "district": "朝阳区", "address": "双桥路与王四营北路交叉口", "lat": "39.884913", "lng": "116.572333", "business_area": "[]", "id": "B000A95CA0"}, {"name": "中国石化(三间房东路加油站)", "district": "朝阳区", "address": "三间房东路5号院", "lat": "39.917591", "lng": "116.577691", "business_area": "常营", "id": "B000A95CGX"}, {"name": "大柳树加油站", "district": "朝阳区", "address": "王四营路与官庄路交叉口向东路北,大柳树市场附近", "lat": "39.874064", "lng": "116.509892", "business_area": "[]", "id": "B0FFHLRG98"}, {"name": "我要加油(惠新店)", "district": "朝阳区", "address": "惠新东街甲6号中国石化大楼1号楼613室", "lat": "39.984660", "lng": "116.425210", "business_area": "小关", "id": "B0FFH12R5W"}, {"name": "中国国际能源", "district": "朝阳区", "address": "黄杉木店路155号", "lat": "39.924176", "lng": "116.527405", "business_area": "[]", "id": "B0FFHREXY9"}, {"name": "中国石化汇杰鑫加油站(管庄路店)", "district": "朝阳区", "address": "楼梓庄路与管庄路交叉口", "lat": "39.97572", "lng": "116.570708", "business_area": "东坝", "id": "B000A95CDY"}, {"name": "中国石油安岛加油站", "district": "朝阳区", "address": "京密路与黄康路交叉口西南200米", "lat": "40.039095", "lng": "116.530992", "business_area": "[]", "id": "B000A95C28"}, {"name": "中国石化果北加油站(瑞祥里小区西南)(装修中)", "district": "朝阳区", "address": "管庄果家店村", "lat": "39.909256", "lng": "116.607936", "business_area": "[]", "id": "B000A95CCO"}, {"name": "北京市朝阳区兴隆石油产品供应站", "district": "朝阳区", "address": "东四环南路874号附近", "lat": "39.848005", "lng": "116.485845", "business_area": "十八里店", "id": "B0FFIYG9B9"}, {"name": "中国石化朝阳加油站(皮村路)", "district": "朝阳区", "address": "皮村路皮村段朝阳农场北面", "lat": "39.987653", "lng": "116.623141", "business_area": "[]", "id": "B000A95CJY"}, {"name": "中国石油国能石油加油站(万通路)", "district": "朝阳区", "address": "万通路与双桥西路交叉口东100米", "lat": "39.857862", "lng": "116.591553", "business_area": "[]", "id": "B000A8XR0Z"}, {"name": "中国石化裕翠加油站", "district": "海淀区", "address": "西翠路15号", "lat": "39.917959", "lng": "116.282884", "business_area": "五棵松", "id": "B000A8UT7R"}, {"name": "中国石化上地加油站", "district": "海淀区", "address": "上地西路与马连洼北路交汇处西230米路北", "lat": "40.035106", "lng": "116.304001", "business_area": "上地", "id": "B000A83FPS"}, {"name": "中国石化加油站(万泉庄)", "district": "海淀区", "address": "北三环西路62号(理工大学北门的东侧)", "lat": "39.963432", "lng": "116.312569", "business_area": "[]", "id": "B0FFF5UZQW"}, {"name": "中国石化加油站", "district": "海淀区", "address": "建材城西路2号", "lat": "40.061788", "lng": "116.360390", "business_area": "西三旗", "id": "B000A01D9F"}, {"name": "中名加油站", "district": "海淀区", "address": "花园路小关街120号", "lat": "39.978061", "lng": "116.380575", "business_area": "牡丹园", "id": "B0FFG73SG8"}, {"name": "中国石化海淀京铁加油站", "district": "海淀区", "address": "中关村东路与成府路交叉口南台湾研究所南侧", "lat": "39.990635", "lng": "116.332614", "business_area": "五道口", "id": "B000A7VYUB"}, {"name": "壳牌加油站(小营站)", "district": "海淀区", "address": "京昌高速辅路小营桥向西(毛坊城市场附近)", "lat": "40.036059", "lng": "116.334880", "business_area": "清河", "id": "B000A01E23"}, {"name": "众生石油万玉加油站", "district": "海淀区", "address": "北四环西路101号(北京大鹏湾休闲湾宾馆附近)", "lat": "39.970852", "lng": "116.273983", "business_area": "[]", "id": "B000A7BO1B"}, {"name": "中国石化永定路加油站", "district": "海淀区", "address": "复兴路36号丁", "lat": "39.906945", "lng": "116.262253", "business_area": "[]", "id": "B000A0120B"}, {"name": "中国石化加油站(中关村大街)", "district": "海淀区", "address": "中关村大街20号(科贸电子城南行100米)", "lat": "39.982246", "lng": "116.317131", "business_area": "中关村", "id": "B000A8VRVL"}, {"name": "中国石油中油首汽五号加油站", "district": "海淀区", "address": "中关村南大街5号院内平房", "lat": "39.958211", "lng": "116.322121", "business_area": "[]", "id": "B000A7VYUC"}, {"name": "中国石油首汽2号加油站(三虎桥小区东)", "district": "海淀区", "address": "紫竹院南路附近", "lat": "39.938508", "lng": "116.31953", "business_area": "[]", "id": "B0FFGYRY0C"}, {"name": "清河加油站(学清路)", "district": "海淀区", "address": "学清路", "lat": "40.01693", "lng": "116.352581", "business_area": "[]", "id": "B000A70E86"}, {"name": "中国石化航天加油站", "district": "海淀区", "address": "友谊路103号", "lat": "40.07534", "lng": "116.26917", "business_area": "西北旺", "id": "B000A1B1BA"}, {"name": "中国石油瑞洁加油站", "district": "海淀区", "address": "北土城西路(牡丹园环岛以东)", "lat": "39.976458", "lng": "116.376739", "business_area": "马甸", "id": "B000A473E2"}, {"name": "众生中油加油站", "district": "海淀区", "address": "北清路88号", "lat": "40.069746", "lng": "116.232897", "business_area": "西北旺", "id": "B000A7W3TS"}, {"name": "北京市华诚欣加油站(西二旗南路)", "district": "海淀区", "address": "西二旗中路29号", "lat": "40.049664", "lng": "116.318141", "business_area": "西二旗", "id": "B000A87CVR"}, {"name": "中国石油加油站(杏石口路)", "district": "海淀区", "address": "杏石口路49号", "lat": "39.947583", "lng": "116.251586", "business_area": "[]", "id": "B000A28EDA"}, {"name": "北京师大加油站", "district": "海淀区", "address": "文慧园北路12号", "lat": "39.956122", "lng": "116.361867", "business_area": "小西天", "id": "B000A7YW1O"}, {"name": "中国石油军鹏加油站(装修中)", "district": "海淀区", "address": "香山红门村向北50米", "lat": "39.997567", "lng": "116.237541", "business_area": "香山", "id": "B000A7BRXZ"}, {"name": "中国石化加油站(清华东路)", "district": "海淀区", "address": "学院路18号", "lat": "40.000795", "lng": "116.36052", "business_area": "[]", "id": "B000A7TKS4"}, {"name": "中国石化(卧佛寺加油站)", "district": "海淀区", "address": "香山北沟1号(香泉环岛以西约160米路北)", "lat": "39.993984", "lng": "116.218073", "business_area": "香山", "id": "B000A1B9CB"}, {"name": "壳牌加油站(北宫门站)", "district": "海淀区", "address": "颐和园北宫门青龙桥三叉口84号", "lat": "40.004518", "lng": "116.273103", "business_area": "[]", "id": "B000A19777"}, {"name": "中国石油西三旗服务区加油站", "district": "海淀区", "address": "西三旗南侧高速路内东方建材超市对面", "lat": "40.049294", "lng": "116.333100", "business_area": "西三旗", "id": "B000A83GTE"}, {"name": "中国石油西三旗服务区加油站", "district": "海淀区", "address": "服务区与G6京藏高速交汇处东北50米", "lat": "40.049568", "lng": "116.333601", "business_area": "西三旗", "id": "B000A83GWN"}, {"name": "中化石油首石缘加油站", "district": "海淀区", "address": "西三环北路75号金龙潭大饭店旁", "lat": "39.93813", "lng": "116.309594", "business_area": "[]", "id": "?B000A7W3W4"}, {"name": "翠泉加油站", "district": "海淀区", "address": "正福寺路与板井路交汇处", "lat": "39.947886", "lng": "116.288614", "business_area": "[]", "id": "B000A7W384"}, {"name": "中国石化巩华加油站(暂停营业)", "district": "海淀区", "address": "沙阳路附近", "lat": "40.121732", "lng": "116.2451", "business_area": "沙河", "id": "B000A84ZOF"}, {"name": "众生中油", "district": "海淀区", "address": "阜石路56号", "lat": "39.9237", "lng": "116.266558", "business_area": "[]", "id": "B000A80DBG"}, {"name": "中国石油加油站(志新路)", "district": "海淀区", "address": "志新路30号北京科技大学北门西侧30米", "lat": "39.993157", "lng": "116.355618", "business_area": "[]", "id": "B0FFF6RHCR"}, {"name": "中国石油南平庄加油站(装修中)", "district": "海淀区", "address": "四季青杏石口路42号", "lat": "39.947435", "lng": "116.244504", "business_area": "西山", "id": "B000A7W37X"}, {"name": "北体加油站", "district": "海淀区", "address": "信息路48号北京体育大学附近", "lat": "40.022259", "lng": "116.314502", "business_area": "上地", "id": "B000A01DA6"}, {"name": "中国石油加油站(建材城西路)", "district": "海淀区", "address": "西三旗桥东中邮科技培训宾馆对面(近沁春家园)", "lat": "40.058574", "lng": "116.338855", "business_area": "西三旗", "id": "B000A80T9C"}, {"name": "中国石化安宁庄加油站", "district": "海淀区", "address": "安宁庄路15-25号附近", "lat": "40.048991", "lng": "116.320489", "business_area": "[]", "id": "B000A01DA4"}, {"name": "中国石化(永丰加油站)", "district": "海淀区", "address": "永丰路", "lat": "40.059909", "lng": "116.249875", "business_area": "西北旺", "id": "B0FFH8LI9R"}, {"name": "中国石化加油站", "district": "海淀区", "address": "沙阳路126号附近", "lat": "40.122739", "lng": "116.217262", "business_area": "[]", "id": "B000A81KTU"}, {"name": "中国石化西北旺加油站", "district": "海淀区", "address": "黑龙潭路58号", "lat": "40.044365", "lng": "116.250009", "business_area": "西北旺", "id": "B0FFG1FUO5"}, {"name": "道达尔中化", "district": "海淀区", "address": "西三旗安宁庄路22号", "lat": "40.05263", "lng": "116.326444", "business_area": "西三旗", "id": "B000A7W3UA"}, {"name": "中国石化香南金穗加油站(香山南路)", "district": "海淀区", "address": "香山南路101号", "lat": "39.951412", "lng": "116.21416", "business_area": "香山", "id": "B000A16101"}, {"name": "中国石油北汽加油站", "district": "海淀区", "address": "西小口路西口", "lat": "40.046112", "lng": "116.339186", "business_area": "西三旗", "id": "B0FFG75TK2"}, {"name": "强安石油加油站", "district": "海淀区", "address": "健德门桥西南角", "lat": "39.975598", "lng": "116.380811", "business_area": "马甸", "id": "B000A80B7T"}, {"name": "中国石化加油站", "district": "海淀区", "address": "金沟河路9号", "lat": "39.917881", "lng": "116.267262", "business_area": "[]", "id": "B000A45438"}, {"name": "中国石油加油站(玉渊潭南路)", "district": "海淀区", "address": "玉渊潭南路55号", "lat": "39.913409", "lng": "116.303513", "business_area": "[]", "id": "B03018R6ID"}, {"name": "中国石化西苑加油站", "district": "海淀区", "address": "万泉河路30号", "lat": "39.992740", "lng": "116.297572", "business_area": "西苑", "id": "B000A7VNED"}, {"name": "中国石油加油站", "district": "海淀区", "address": "北辛庄路附近", "lat": "39.968837", "lng": "116.217398", "business_area": "香山", "id": "B000A7W37R"}, {"name": "中国石化温百星加油站", "district": "海淀区", "address": "温阳路与稻香湖西路交叉口西北150米", "lat": "40.091799", "lng": "116.155165", "business_area": "[]", "id": "B0FFGR4GAN"}, {"name": "中国石化昆明湖加油站", "district": "海淀区", "address": "金河路路东", "lat": "39.975047", "lng": "116.279255", "business_area": "[]", "id": "B0FFHFDEE1"}, {"name": "中国石化西黄庄加油站", "district": "海淀区", "address": "昆明湖南路37号", "lat": "39.953208", "lng": "116.277078", "business_area": "[]", "id": "B000A7GSK9"}, {"name": "丰辰加油站(杏石口路)", "district": "海淀区", "address": "杏石口路3号", "lat": "39.947382", "lng": "116.271686", "business_area": "[]", "id": "B0FFG100IW"}, {"name": "中国石化加油站(装修中)", "district": "海淀区", "address": "服务区附近", "lat": "40.062026", "lng": "116.136637", "business_area": "[]", "id": "B000A8UFT7"}, {"name": "七星石油冷泉加油站", "district": "海淀区", "address": "冷泉路与黑龙潭路交叉口东南角", "lat": "40.040329", "lng": "116.22325", "business_area": "西北旺", "id": "?B0FFGPZ6MT"}, {"name": "中国石化田村山北加油站", "district": "海淀区", "address": "砂石厂路61号", "lat": "39.926535", "lng": "116.2387", "business_area": "[]", "id": "B0FFFTI1L6"}, {"name": "中图能源加油站(圆明园西路站)", "district": "海淀区", "address": "圆明园西路2号", "lat": "40.022373", "lng": "116.281862", "business_area": "马连洼", "id": "B000A7BWPD"}, {"name": "中国石油燕港加油站(中关村南四街)", "district": "海淀区", "address": "知春路53号", "lat": "39.976911", "lng": "116.335578", "business_area": "[]", "id": "B000A1F546"}, {"name": "中国石化田村加油站", "district": "海淀区", "address": "半壁店二街64号", "lat": "39.93139", "lng": "116.260194", "business_area": "[]", "id": "B000A5E8A9"}, {"name": "伟氏石油加油站(阜石路辅路)", "district": "海淀区", "address": "晋元桥与阜石路交叉口东北100米", "lat": "39.925263", "lng": "116.208273", "business_area": "石景山", "id": "B0FFFZKWFO"}, {"name": "中国石化加油站(彰化路)", "district": "海淀区", "address": "彰化路与金庄路交叉口东南角", "lat": "39.940830", "lng": "116.281234", "business_area": "[]", "id": "B0FFG40ZFB"}, {"name": "中国石化加油站(杏石口路)", "district": "海淀区", "address": "杏石口路102号", "lat": "39.954596", "lng": "116.221958", "business_area": "香山", "id": "B000A809K8"}, {"name": "中国石化(周家巷北加油站)(装修中)", "district": "海淀区", "address": "周家巷村北六环主路西北侧", "lat": "40.062645", "lng": "116.135551", "business_area": "[]", "id": "B0FFGOKP07"}, {"name": "中国石化清华开拓加油站", "district": "海淀区", "address": "清华大学14区", "lat": "40.000387", "lng": "116.315625", "business_area": "[]", "id": "B000A7YW1R"}, {"name": "中国石化加油站(清华东路)", "district": "海淀区", "address": "清华东路35-1号", "lat": "40.001188", "lng": "116.347396", "business_area": "五道口", "id": "B000A83H4V"}, {"name": "中国石油燕林加油站(黑山扈路)", "district": "海淀区", "address": "黑山扈路19号(百望山森林公园南)", "lat": "40.032862", "lng": "116.264662", "business_area": "西北旺", "id": "B000A83FY5"}, {"name": "中国石化加油站(田村路)(装修中)", "district": "海淀区", "address": "田村路与西五环交叉东南", "lat": "39.933113", "lng": "116.213484", "business_area": "[]", "id": "B0FFG658XQ"}, {"name": "中国石油加油站(香山南路)", "district": "海淀区", "address": "香山南路28号平房(香山南路与闵庄路交叉口北)", "lat": "39.973970", "lng": "116.208080", "business_area": "香山", "id": "B000A809K9"}, {"name": "中国石化北安河加油站(装修中)", "district": "海淀区", "address": "温泉路和南安河路交叉处北路东侧", "lat": "40.053293", "lng": "116.13605", "business_area": "[]", "id": "B000A7W3TU"}, {"name": "中国石化加油站", "district": "海淀区", "address": "西四环北路与西四环北路出口交叉口东北150米", "lat": "39.953229", "lng": "116.276723", "business_area": "[]", "id": "B0FFJGJW42"}, {"name": "中国石油加油站(杰王府西延路)", "district": "海淀区", "address": "杰王府西延路西100米", "lat": "39.991781", "lng": "116.200392", "business_area": "香山", "id": "B0FFGAYOTG"}, {"name": "中国石油北汽北郊加油站", "district": "海淀区", "address": "西小口路西口", "lat": "40.046402", "lng": "116.339169", "business_area": "西三旗", "id": "B0FFHHC65R"}, {"name": "中国石油北清路加油站(装修中)", "district": "海淀区", "address": "北清路164号", "lat": "40.067381", "lng": "116.171798", "business_area": "[]", "id": "B000A95CGG"}, {"name": "中国石化上庄加油站(上庄路)", "district": "海淀区", "address": "西马坊路附近", "lat": "40.091748", "lng": "116.215468", "business_area": "[]", "id": "B000A7W3QH"}, {"name": "中国石化太平湖加油站(德胜门西大街)", "district": "海淀区", "address": "德胜门西大街5-1号", "lat": "39.946938", "lng": "116.365882", "business_area": "西直门", "id": "B000A81JYJ"}, {"name": "中化石油加油站", "district": "海淀区", "address": "西三环北路71号附近", "lat": "39.938739", "lng": "116.309659", "business_area": "[]", "id": "B0FFJNDBGH"}, {"name": "多美多石油加油站", "district": "海淀区", "address": "志新路4号", "lat": "39.993601", "lng": "116.373978", "business_area": "[]", "id": "B000A1C71C"}, {"name": "七星石油加油站", "district": "海淀区", "address": "冷泉路2号附近", "lat": "40.040653", "lng": "116.223164", "business_area": "西北旺", "id": "B0FFJMTC38"}, {"name": "壳牌加油站(青龙桥站)", "district": "海淀区", "address": "香山路280号", "lat": "40.002651", "lng": "116.2477", "business_area": "香山", "id": "B000AAF565"}, {"name": "丰辰加油站(闵庄路)", "district": "海淀区", "address": "四季青闵庄路88号", "lat": "39.972222", "lng": "116.221392", "business_area": "香山", "id": "?B000A7W37Y"}, {"name": "中国石油龙潭加油站(温泉路)", "district": "海淀区", "address": "温泉路26号附近", "lat": "40.040413", "lng": "116.196407", "business_area": "[]", "id": "B000A80SYF"}, {"name": "中国石化(温百星加油站)", "district": "海淀区", "address": "前沙涧村南温阳和香湖西路交叉处附近(近温阳路)", "lat": "40.091773", "lng": "116.155246", "business_area": "[]", "id": "B000A83JEO"}, {"name": "中国石化加油站(聂各庄路)", "district": "海淀区", "address": "聂各庄路聂各庄村路段", "lat": "40.096212", "lng": "116.120007", "business_area": "[]", "id": "B000A7F54G"}, {"name": "中国石化龙禹玉泉加油站", "district": "海淀区", "address": "四季青镇闵庄路3号", "lat": "39.973924", "lng": "116.257147", "business_area": "[]", "id": "B000A8629X"}, {"name": "道达尔TOTAL加油站", "district": "海淀区", "address": "双泉堡169号(八达岭高速清河收费站西侧)", "lat": "40.011656", "lng": "116.360806", "business_area": "[]", "id": "B0FFICP8BQ"}, {"name": "中国石化加油站(学清路)(装修中)", "district": "海淀区", "address": "学院路甲5号", "lat": "40.010895", "lng": "116.351851", "business_area": "[]", "id": "B0FFF41UOE"}, {"name": "中化道达尔北沙滩站", "district": "海淀区", "address": "双泉堡169号", "lat": "40.011971", "lng": "116.360925", "business_area": "[]", "id": "B0FFHG963F"}, {"name": "三元东北旺加油站(装修中)", "district": "海淀区", "address": "东北旺路", "lat": "40.043305", "lng": "116.296191", "business_area": "上地", "id": "B000A9ETG3"}, {"name": "中国石化京通港加油站", "district": "通州区", "address": "[]", "lat": "39.922797", "lng": "116.641853", "business_area": "永顺", "id": "B000A7VSX7"}, {"name": "中国石化运河加油站", "district": "通州区", "address": "运河西大街葛布店南里对面", "lat": "39.892751", "lng": "116.66292", "business_area": "玉桥", "id": "B000A7YW2E"}, {"name": "中国石化欣怡乐加油站", "district": "通州区", "address": "通朝大街438号", "lat": "39.891778", "lng": "116.632554", "business_area": "梨园", "id": "B0FFGK9A8V"}, {"name": "中国石油马驹桥加油站", "district": "通州区", "address": "马驹桥", "lat": "39.751031", "lng": "116.559636", "business_area": "[]", "id": "B000A8X5C9"}, {"name": "中国石化马驹桥服务区加油站", "district": "通州区", "address": "G2京沪高速东50米", "lat": "39.761156", "lng": "116.562563", "business_area": "[]", "id": "B0FFGB34XX"}, {"name": "中国石化中原创业加油站", "district": "通州区", "address": "宋庄镇丁各庄村(丁各庄路与宋梁路交叉口北路东)", "lat": "39.931735", "lng": "116.735019", "business_area": "[]", "id": "B000A95CON"}, {"name": "中国石化马驹桥服务区加油站", "district": "通州区", "address": "马驹桥镇京津塘高速马驹桥服务区", "lat": "39.759845", "lng": "116.562163", "business_area": "[]", "id": "B000A80S5W"}, {"name": "中国石油富华兆元加油站", "district": "通州区", "address": "嘉创五路13号", "lat": "39.80683", "lng": "116.567148", "business_area": "[]", "id": "B000A95C8S"}, {"name": "中国石化加油站(新华西街)", "district": "通州区", "address": "新华西街137号", "lat": "39.906335", "lng": "116.637616", "business_area": "北苑", "id": "B000A7OK59"}, {"name": "中国石油加油站", "district": "通州区", "address": "运河西大街燕桥加油站旁洗车房33号", "lat": "39.892866", "lng": "116.693814", "business_area": "玉桥", "id": "B000A7W3D3"}, {"name": "中国石化台津加油站(装修中)", "district": "通州区", "address": "梨园镇梨园村口", "lat": "39.880655", "lng": "116.67382", "business_area": "梨园", "id": "B000A01760"}, {"name": "中国石化北火垡东加油站", "district": "通州区", "address": "南六环与县道010交叉口向东路北(北服务区)", "lat": "39.811246", "lng": "116.647964", "business_area": "[]", "id": "B000A87UAX"}, {"name": "中国石化八里桥加油站", "district": "通州区", "address": "八里桥南街8号(京贸国际公寓东侧)", "lat": "39.905971", "lng": "116.624924", "business_area": "[]", "id": "B000A7W3C4"}, {"name": "中国石化廊桥加油站", "district": "通州区", "address": "漷小路", "lat": "39.59705", "lng": "116.783323", "business_area": "[]", "id": "B000A01AC5"}, {"name": "中国石化(腾达加油站)", "district": "通州区", "address": "口子村路段路西京通汽修对面", "lat": "39.849507", "lng": "116.610894", "business_area": "[]", "id": "B000A95CKV"}, {"name": "中国石化运达加油站", "district": "通州区", "address": "土桥欣村向南1公里", "lat": "39.863400", "lng": "116.696869", "business_area": "[]", "id": "B0FFJP6Q2N"}, {"name": "中国石化潞府加油站", "district": "通州区", "address": "郎府", "lat": "39.799266", "lng": "116.844391", "business_area": "[]", "id": "B000A7W3FX"}, {"name": "壳牌加油站(临河里站)", "district": "通州区", "address": "临河里北侧京津公路103国道", "lat": "39.876321", "lng": "116.677356", "business_area": "梨园", "id": "B000A81KO2"}, {"name": "中国石化加油站", "district": "通州区", "address": "西集镇", "lat": "39.813485", "lng": "116.877132", "business_area": "[]", "id": "B0FFJDWNKU"}, {"name": "中国石化大北关加油站", "district": "通州区", "address": "张采路531号", "lat": "39.778349", "lng": "116.697786", "business_area": "[]", "id": "B000A01A56"}, {"name": "马驹桥石化加油站", "district": "通州区", "address": "漷马路旧线", "lat": "39.745818", "lng": "116.567787", "business_area": "[]", "id": "B0FFG7476T"}, {"name": "中国石化城南加油站", "district": "通州区", "address": "九棵树西路108号", "lat": "39.880073", "lng": "116.647493", "business_area": "梨园", "id": "B0FFFP7423"}, {"name": "中国石化海宏加油站", "district": "通州区", "address": "通顺路辅路附近", "lat": "39.936790", "lng": "116.657340", "business_area": "永顺", "id": "B000A6DBAB"}, {"name": "中国石油田家府服务区京沈加油站", "district": "通州区", "address": "京沈高速路服务区台湖镇田家府服务区", "lat": "39.840240", "lng": "116.669862", "business_area": "[]", "id": "B000A83DE5"}, {"name": "中化石油加油站", "district": "通州区", "address": "103国道", "lat": "39.847495", "lng": "116.760803", "business_area": "[]", "id": "B0FFGZXSWF"}, {"name": "中国石油运政加油站", "district": "通州区", "address": "西合路中国石化运政加油站西邻", "lat": "39.813487", "lng": "116.877017", "business_area": "[]", "id": "?B0FFFRGAO9"}, {"name": "中国石化东升加油站", "district": "通州区", "address": "牛堡屯镇牛堡屯中街村张采路与漷马路交汇处", "lat": "39.757542", "lng": "116.688331", "business_area": "[]", "id": "B000A01A59"}, {"name": "中国石化甘棠加油站", "district": "通州区", "address": "路程镇侉子店村西(甘棠中学斜对面)(通州区甘棠卫生院西)", "lat": "39.854641", "lng": "116.807261", "business_area": "[]", "id": "B0FFGWIVNN"}, {"name": "中国石化港通加油站", "district": "通州区", "address": "里二泗中路与京塘路交汇处", "lat": "39.830353", "lng": "116.779428", "business_area": "[]", "id": "B0FFHW8ZDS"}, {"name": "中国石化堡辛加油站", "district": "通州区", "address": "通胡路附近", "lat": "39.916471", "lng": "116.72533", "business_area": "潞城", "id": "B0FFGRMKGZ"}, {"name": "中国石化秋瑞加油站", "district": "通州区", "address": "东河村,孔兴路与德觅路交叉口西北角,小务中学附近", "lat": "39.675449", "lng": "116.820073", "business_area": "[]", "id": "B0FFGWIVFL"}, {"name": "中国石化(白庙加油站)", "district": "通州区", "address": "宋庄镇白庙村013县道", "lat": "39.943421", "lng": "116.766439", "business_area": "[]", "id": "B000A95CJB"}, {"name": "中化道达尔梨园加油站(怡乐南街)", "district": "通州区", "address": "九棵树西路9号通马公路京沈高速普合一桥北侧路西", "lat": "39.862926", "lng": "116.629185", "business_area": "梨园", "id": "B000A8X62E"}, {"name": "中国国燃远东加油站", "district": "通州区", "address": "西集镇沙古堆村", "lat": "39.818835", "lng": "116.798957", "business_area": "[]", "id": "B0FFHCBVXW"}, {"name": "中化石油服务区加油站", "district": "通州区", "address": "[]", "lat": "39.936231", "lng": "116.769348", "business_area": "[]", "id": "B0FFHIF5NZ"}, {"name": "中国石化京榆路加油站", "district": "通州区", "address": "宋庄镇白家坟任李路与京榆旧路交汇处,通州区任庄村村委会附近", "lat": "39.946189", "lng": "116.74642", "business_area": "[]", "id": "B000A80IIY"}, {"name": "中国石化新友加油站", "district": "通州区", "address": "九德路东50米", "lat": "39.753037", "lng": "116.653110", "business_area": "[]", "id": "B0FFGYR0DN"}, {"name": "中国石化战备加油站", "district": "通州区", "address": "服务区与通燕高速交叉口东北100米", "lat": "39.936201", "lng": "116.766559", "business_area": "[]", "id": "B0FFGFAIQG"}, {"name": "中国石化运恒加油站", "district": "通州区", "address": "通顺路北马庄村", "lat": "39.949605", "lng": "116.657072", "business_area": "[]", "id": "B000A95CHS"}, {"name": "中国石化渠头加油站", "district": "通州区", "address": "于家务乡渠头村西口、张凤路与柏德路交叉口东北角", "lat": "39.681694", "lng": "116.728415", "business_area": "[]", "id": "B0FFG415T5"}, {"name": "中国石化(全发加油站)", "district": "通州区", "address": "梨园镇云景东路90号", "lat": "39.861598", "lng": "116.661061", "business_area": "梨园", "id": "B0FFG73JJF"}, {"name": "中国石化运政加油站", "district": "通州区", "address": "通香路与207省道交汇处的东南方三美加油站旁", "lat": "39.813423", "lng": "116.877546", "business_area": "[]", "id": "B0FFHFGGKA"}, {"name": "中国石油神树加油站", "district": "通州区", "address": "次渠", "lat": "39.824089", "lng": "116.536213", "business_area": "十八里店", "id": "B000A9IMCC"}, {"name": "永顺加油站", "district": "通州区", "address": "永顺镇永顺村京通高速西马庄收费站出口", "lat": "39.919619", "lng": "116.639576", "business_area": "永顺", "id": "B000A80IIZ"}, {"name": "中国石化京都生华加油站", "district": "通州区", "address": "漷县镇京塘路与漷马路交叉口西北角(漷县派出所对面)", "lat": "39.781996", "lng": "116.794517", "business_area": "[]", "id": "B0FFGJBZJ1"}, {"name": "中国石化住海三利加油站", "district": "通州区", "address": "宋庄镇白庙村西乙13号", "lat": "39.935534", "lng": "116.763307", "business_area": "[]", "id": "B0FFG41548"}, {"name": "中国石化永乐停车区加油站", "district": "通州区", "address": "柴厂屯镇京津高速永乐店服务区北侧", "lat": "39.643524", "lng": "116.812859", "business_area": "[]", "id": "B0FFGAV31N"}, {"name": "中国石化通州北苑加油站", "district": "通州区", "address": "九棵树东路25号", "lat": "39.889800", "lng": "116.660886", "business_area": "梨园", "id": "B000A9ETIR"}, {"name": "中化加油站", "district": "通州区", "address": "九德路与京亦街交叉口东北150米", "lat": "39.835011", "lng": "116.658466", "business_area": "[]", "id": "B0FFJPXDZM"}, {"name": "中国石油友联加油站", "district": "通州区", "address": "张家湾镇姚辛庄村", "lat": "39.812215", "lng": "116.777643", "business_area": "[]", "id": "B000A95CB4"}, {"name": "中国石化华龙加油站(龙旺庄西路)", "district": "通州区", "address": "永顺镇龙旺庄村南", "lat": "39.924463", "lng": "116.687799", "business_area": "永顺", "id": "?B000A95COS"}, {"name": "中国石化永乐店服务区加油站", "district": "通州区", "address": "京津高速附近", "lat": "39.643328", "lng": "116.810109", "business_area": "[]", "id": "B0FFFAL5DF"}, {"name": "中国石油通州加油站", "district": "通州区", "address": "徐辛庄镇,通顺路与徐尹路交叉口向南,路东", "lat": "39.985866", "lng": "116.678447", "business_area": "[]", "id": "B0FFG64HE9"}, {"name": "壳牌加油站(漷县站)", "district": "通州区", "address": "京塘路与漷兴二街交叉口向南100米", "lat": "39.774604", "lng": "116.800882", "business_area": "[]", "id": "B000A7W3G3"}, {"name": "中国石化亚吉加油站(滨河中路)", "district": "通州区", "address": "滨河中路355号", "lat": "39.888689", "lng": "116.706507", "business_area": "[]", "id": "B0FFG73M79"}, {"name": "中国石油建鑫加油站", "district": "通州区", "address": "宋梁路与013县道交汇处东南角", "lat": "39.944086", "lng": "116.731550", "business_area": "[]", "id": "B0FFHL3VW5"}, {"name": "中国石油加油站(徐尹路)", "district": "通州区", "address": "宋庄镇尹各庄村,滨河路与徐尹路交叉口向西路北,格拉斯小镇附近", "lat": "39.986186", "lng": "116.649305", "business_area": "[]", "id": "B0FFG63ITZ"}, {"name": "中国石化徐庄加油站", "district": "通州区", "address": "台湖镇潞西路", "lat": "39.793657", "lng": "116.645497", "business_area": "[]", "id": "B000A95C4O"}, {"name": "中国石油凯利加油站", "district": "通州区", "address": "京塘路与凉运路交叉口西北角", "lat": "39.82492", "lng": "116.780285", "business_area": "[]", "id": "B000AA7BDN"}, {"name": "中国石油岳上加油站", "district": "通州区", "address": "西集镇杜柳棵小学旁", "lat": "39.813221", "lng": "116.838766", "business_area": "[]", "id": "B0FFFP021L"}, {"name": "京都诚信加油站", "district": "通州区", "address": "觅子店", "lat": "39.745231", "lng": "116.853298", "business_area": "[]", "id": "B000A80S8S"}, {"name": "道达尔加油站(北关店)", "district": "通州区", "address": "北关桥正北1公里检测场路口", "lat": "39.933927", "lng": "116.657762", "business_area": "永顺", "id": "B000A7QN0S"}, {"name": "中国石油京东天源加油站", "district": "通州区", "address": "张家湾牌楼营", "lat": "39.833847", "lng": "116.703107", "business_area": "张家湾", "id": "B000A95C4A"}, {"name": "中国石化京教加油站", "district": "通州区", "address": "城关镇", "lat": "39.931134", "lng": "116.687248", "business_area": "永顺", "id": "B000A95CLC"}, {"name": "中国石化顺兴加油站", "district": "通州区", "address": "双埠头村南口通顺路双埠头村南口富豪北口1公里路东侧徐辛庄南1公里", "lat": "39.969047", "lng": "116.672288", "business_area": "[]", "id": "B000A95CH9"}, {"name": "中国石油田家府服务区加油站", "district": "通州区", "address": "京哈高速田家府服务区", "lat": "39.841619", "lng": "116.668468", "business_area": "[]", "id": "B0FFHN6ZJS"}, {"name": "加油站(国家法官学院东)", "district": "通州区", "address": "竹木厂村北30号", "lat": "39.913289", "lng": "116.623517", "business_area": "八里桥", "id": "B0FFIW7CJS"}, {"name": "北城石化加油站", "district": "通州区", "address": "温榆河东路与通顺路交叉口西南", "lat": "39.929533", "lng": "116.657390", "business_area": "永顺", "id": "B0FFIY86OC"}, {"name": "道达尔张家湾加油站(暂停营业)", "district": "通州区", "address": "103国道三龙建材城西侧", "lat": "39.862417", "lng": "116.72658", "business_area": "张家湾", "id": "B0FFFRGBJG"}, {"name": "中国石油方深加油站", "district": "通州区", "address": "梨园镇813乡道与京塘路交汇处东侧路北", "lat": "39.871446", "lng": "116.690807", "business_area": "梨园", "id": "B000A95C8G"}, {"name": "中国石油京东长江加油站(德邑·新时空东)(装修中)", "district": "通州区", "address": "台湖镇田家府村北296号", "lat": "39.850912", "lng": "116.659128", "business_area": "[]", "id": "B000A81KO1"}, {"name": "中国石化燕通加油站", "district": "通州区", "address": "永乐店镇新西庄村东", "lat": "39.715354", "lng": "116.771633", "business_area": "[]", "id": "B000A7VSZE"}, {"name": "中国石化平安加油站(瓦沙路)(装修中)", "district": "通州区", "address": "京津公路(驿钢废旧物品回收有限公司北)", "lat": "39.685518", "lng": "116.907195", "business_area": "[]", "id": "B000A9ETJ8"}, {"name": "中国石油通宫加油站", "district": "通州区", "address": "东六环与省道201交叉口向北路东", "lat": "40.014309", "lng": "116.678129", "business_area": "李桥", "id": "B000A96HD9"}, {"name": "北京市大稿京苑加油站", "district": "通州区", "address": "通马路与万盛中三街交汇处向北路东,北京烟草物流中心附近", "lat": "39.868469", "lng": "116.635447", "business_area": "梨园", "id": "B0FFG8SOQZ"}, {"name": "中国石化北火垡西加油站", "district": "通州区", "address": "东六环与服务区交叉口南150米", "lat": "39.809054", "lng": "116.647727", "business_area": "[]", "id": "?B0FFI6C2AL"}, {"name": "中国石化龙禹加油站", "district": "通州区", "address": "通顺路与富壁路交叉处", "lat": "39.955866", "lng": "116.661105", "business_area": "[]", "id": "B000A95CI4"}, {"name": "金路加油站(唐通线)", "district": "通州区", "address": "301省道东50米", "lat": "39.792117", "lng": "116.940534", "business_area": "[]", "id": "B0FFFW6AKY"}, {"name": "中国石化宏通加油站", "district": "通州区", "address": "西集镇大灰店村通香公路西侧", "lat": "39.805261", "lng": "116.905412", "business_area": "[]", "id": "B000A95C4C"}, {"name": "长凌营加油站", "district": "通州区", "address": "漷县镇京塘路榆林庄村路段路西", "lat": "39.782237", "lng": "116.793203", "business_area": "[]", "id": "B000A7W36Q"}, {"name": "中国石化聚福锦余加油站", "district": "通州区", "address": "于家务乡于家务村西", "lat": "39.718306", "lng": "116.703394", "business_area": "[]", "id": "B000A95CRS"}, {"name": "中化道达尔北关加油站", "district": "通州区", "address": "通顺路229号附近", "lat": "39.933792", "lng": "116.657967", "business_area": "永顺", "id": "B0FFGZM6M3"}, {"name": "潞通石化加油站", "district": "通州区", "address": "潞苑南大街与辛疃路交叉口西北角", "lat": "39.935989", "lng": "116.702515", "business_area": "[]", "id": "B000A95CB1"}, {"name": "中国石化于觅路加油站", "district": "通州区", "address": "304省道孔庄桥东", "lat": "39.707597", "lng": "116.821962", "business_area": "[]", "id": "B000A95CSY"}, {"name": "中国石化觅康加油站", "district": "通州区", "address": "安平镇103国道与觅西路交叉口觅子店卫生院附近", "lat": "39.719143", "lng": "116.882772", "business_area": "[]", "id": "B000A95CRG"}, {"name": "中国石化加油站", "district": "通州区", "address": "九棵树东路25号", "lat": "39.889994", "lng": "116.660582", "business_area": "梨园", "id": "B0FFIBS76A"}, {"name": "中国石化暖风加油站(103国道辅路)", "district": "通州区", "address": "张家湾103国道与光华路交叉口东南角东方化工厂路口红绿灯旁", "lat": "39.86243", "lng": "116.721696", "business_area": "张家湾", "id": "B000A95CHF"}, {"name": "中国石化通惠加油站", "district": "通州区", "address": "通马路附近", "lat": "39.811309", "lng": "116.57328", "business_area": "[]", "id": "B0FFIOXOY1"}, {"name": "中国石化京东海苑加油站", "district": "通州区", "address": "潞城镇胡郎路南刘各庄村路段路北", "lat": "39.883092", "lng": "116.766423", "business_area": "[]", "id": "B000A95CF7"}, {"name": "中国石油加油站", "district": "通州区", "address": "漷马路", "lat": "39.748322", "lng": "116.645197", "business_area": "[]", "id": "B000A95CS4"}, {"name": "中国石油加油站", "district": "通州区", "address": "芙蓉东路附近", "lat": "39.916468", "lng": "116.689988", "business_area": "永顺", "id": "B000A7W3D1"}, {"name": "中国石化加油站(南丁庄)", "district": "通州区", "address": "漷小路附近", "lat": "39.752443", "lng": "116.786899", "business_area": "[]", "id": "B000A7W3FW"}, {"name": "中国石化西永和屯加油站(装修中)", "district": "通州区", "address": "漷马路北50米", "lat": "39.768034", "lng": "116.719210", "business_area": "[]", "id": "B0FFJHKF8Q"}, {"name": "中国石化永乐店加油站(暂停营业)", "district": "通州区", "address": "永乐店镇德仁务村北", "lat": "39.684756", "lng": "116.780100", "business_area": "[]", "id": "B000A95CSS"}, {"name": "中化道达尔加油站(京榆公路)", "district": "通州区", "address": "通州北关桥东南", "lat": "39.919651", "lng": "116.639550", "business_area": "永顺", "id": "B0FFHIQ2JK"}, {"name": "中国石油天成桥加油站", "district": "通州区", "address": "天成桥1号(西马庄收费站东)", "lat": "39.918761", "lng": "116.636952", "business_area": "永顺", "id": "B000A9EUU1"}, {"name": "安顺站加油站", "district": "通州区", "address": "安平镇京塘路与德觅路交叉口", "lat": "39.717786", "lng": "116.882805", "business_area": "[]", "id": "B000A95CSM"}, {"name": "伟氏石油天通苑加油站", "district": "昌平区", "address": "天通中苑二区47号楼", "lat": "40.068535", "lng": "116.414333", "business_area": "东小口", "id": "B0FFG0ZUFL"}, {"name": "中国石化加油站(绿墅东北)", "district": "昌平区", "address": "回南路与立汤路交汇口西100米路北", "lat": "40.089449", "lng": "116.411092", "business_area": "北七家", "id": "B000A7VLH9"}, {"name": "中国石化加油站(回龙观西大街)", "district": "昌平区", "address": "回龙观镇回龙观西大街101号", "lat": "40.076355", "lng": "116.322466", "business_area": "回龙观", "id": "B000A7W36X"}, {"name": "中国石化苗圃加油站", "district": "昌平区", "address": "常后路与立汤路交汇处西北角", "lat": "40.162490", "lng": "116.407702", "business_area": "[]", "id": "B000A860T5"}, {"name": "龙瑞森长陵加油站", "district": "昌平区", "address": "定陵机场路与昭陵路交叉口西100米", "lat": "40.289409", "lng": "116.238245", "business_area": "[]", "id": "B000A7BSXC"}, {"name": "中国石化西关加油站", "district": "昌平区", "address": "昌平镇西关槐树巷", "lat": "40.216767", "lng": "116.2182", "business_area": "[]", "id": "B000A7W3OT"}, {"name": "中国石化西大桥加油站", "district": "昌平区", "address": "温南路附近", "lat": "40.227638", "lng": "116.118089", "business_area": "南口", "id": "B000A8617Q"}, {"name": "中国石化果庄加油站", "district": "昌平区", "address": "京银路附近", "lat": "40.329126", "lng": "116.151725", "business_area": "[]", "id": "B000A81AG7"}, {"name": "中国石化世博加油站(百沙路)", "district": "昌平区", "address": "沙河镇南丰路与百沙路交叉口东侧路南", "lat": "40.148863", "lng": "116.289369", "business_area": "沙河", "id": "B000A80SS9"}, {"name": "中国石油加油站", "district": "昌平区", "address": "立水桥北路与中滩村北二街交叉口向南路东、龙德广场东", "lat": "40.059772", "lng": "116.417348", "business_area": "东小口", "id": "B000A83FJO"}, {"name": "中国石化三元南口加油站", "district": "昌平区", "address": "县道017与省道218交叉口西北处", "lat": "40.181467", "lng": "116.12292", "business_area": "[]", "id": "B000A81HPX"}, {"name": "中国石化沙坨加油站", "district": "昌平区", "address": "兴寿沙坨村", "lat": "40.207197", "lng": "116.413683", "business_area": "[]", "id": "B000A7W3P4"}, {"name": "中国石化华昌加油站(水南路)", "district": "昌平区", "address": "水南路3号,水屯路,昌平环球印刷场附近", "lat": "40.199765", "lng": "116.2276", "business_area": "[]", "id": "B000A7W3OM"}, {"name": "中国石化振铎加油站(暂停营业)", "district": "昌平区", "address": "马池口镇顺沙路横桥村路段(如到家饭店附近)", "lat": "40.168600", "lng": "116.192159", "business_area": "[]", "id": "B000A7W3OP"}, {"name": "中国石化服务区加油站", "district": "昌平区", "address": "北六环路百善镇路段百善桥西百善服务区北", "lat": "40.174608", "lng": "116.322607", "business_area": "百善", "id": "B000A856Y7"}, {"name": "中国石化南海加油站(南龙路)(暂停营业)", "district": "昌平区", "address": "南口镇龙虎台村", "lat": "40.238883", "lng": "116.151541", "business_area": "南口", "id": "B000A87V6Y"}, {"name": "中国石化东关加油站(管厂路)", "district": "昌平区", "address": "东关水库路(省道214与朝辛路交汇处)", "lat": "40.228622", "lng": "116.262193", "business_area": "[]", "id": "B000A01BBB"}, {"name": "中国石油兴寿兴农加油站", "district": "昌平区", "address": "兴寿镇兴寿村720号", "lat": "40.217704", "lng": "116.415786", "business_area": "兴寿", "id": "B000A80SK0"}, {"name": "京昌加油站", "district": "昌平区", "address": "东三旗亚市汽车交易市场北侧", "lat": "40.097875", "lng": "116.414571", "business_area": "北七家", "id": "B000A8X3OU"}, {"name": "中国石化龙翔加油站", "district": "昌平区", "address": "振兴路59号", "lat": "40.20757", "lng": "116.228396", "business_area": "城南", "id": "B000A6B411"}, {"name": "中国石化桃洼加油站(水库南路)", "district": "昌平区", "address": "218省道与219省道交口西北角", "lat": "40.2319", "lng": "116.117979", "business_area": "南口", "id": "B000A019EE"}, {"name": "中图能源美拓加油站", "district": "昌平区", "address": "京藏高速辅路(一汽大众奥之杰旁边)", "lat": "40.079656", "lng": "116.308449", "business_area": "回龙观", "id": "B000A7W3UH"}, {"name": "中国石化年福加油站", "district": "昌平区", "address": "北清路平西府派出所斜对面", "lat": "40.101605", "lng": "116.383908", "business_area": "北七家", "id": "B000A80SSO"}, {"name": "中国石化三元加油站", "district": "昌平区", "address": "回龙观镇西二旗北路与西二旗东一路交叉口东", "lat": "40.0608", "lng": "116.323563", "business_area": "西三旗", "id": "B000A01D91"}, {"name": "中国石化昌保加油站", "district": "昌平区", "address": "城南街道镇北郝庄村,北郝庄村幼儿园附近(八达岭高速南侧辅路,西关环岛西面100米路南)", "lat": "40.223617", "lng": "116.208026", "business_area": "[]", "id": "B000A81HQ1"}, {"name": "龙润通达加油站", "district": "昌平区", "address": "新龙城1期南门斜对面", "lat": "40.066977", "lng": "116.322252", "business_area": "回龙观", "id": "?B0FFG69MRO"}, {"name": "鑫光加油站", "district": "昌平区", "address": "城南街道旧县村", "lat": "40.224577", "lng": "116.193417", "business_area": "[]", "id": "B000A81AGE"}, {"name": "中国石化七里渠加油站", "district": "昌平区", "address": "七里渠乡政府东豆各庄村定泗路与豆各庄路交叉口向东路北", "lat": "40.1122", "lng": "116.305232", "business_area": "沙河", "id": "B0FFG75UD2"}, {"name": "中国石化加油站", "district": "昌平区", "address": "沙阳路辅路与温阳路交汇处东南角,博瑞莱集团附近", "lat": "40.131262", "lng": "116.153702", "business_area": "阳坊村", "id": "B0FFHENA9L"}, {"name": "中国石化真顺加油站(昌崔路)", "district": "昌平区", "address": "崔村镇人民政府附近", "lat": "40.219851", "lng": "116.350105", "business_area": "[]", "id": "B000A7W3OW"}, {"name": "中国石化燕龙加油站", "district": "昌平区", "address": "邓庄村西", "lat": "40.225774", "lng": "116.195015", "business_area": "[]", "id": "B0FFG75UDL"}, {"name": "国华石油加油站", "district": "昌平区", "address": "[]", "lat": "40.177417", "lng": "116.070670", "business_area": "[]", "id": "B0FFJET9RP"}, {"name": "中国石化沙河东加油站", "district": "昌平区", "address": "沙河镇巩华城大街67号", "lat": "40.128925", "lng": "116.269026", "business_area": "沙河", "id": "B000A9ETQC"}, {"name": "中国石化土沟服务区加油站", "district": "昌平区", "address": "京承高速土沟服务区西侧,未来科技城附近", "lat": "40.127918", "lng": "116.482202", "business_area": "[]", "id": "B0FFGAQQ2Q"}, {"name": "中国石化绿岛加油站(松园路)", "district": "昌平区", "address": "松园路77号", "lat": "40.226298", "lng": "116.250092", "business_area": "城北", "id": "B000A01A44"}, {"name": "骡马车加油站(暂停营业)", "district": "昌平区", "address": "定泗路七里渠村路段", "lat": "40.115819", "lng": "116.341725", "business_area": "[]", "id": "B000A8XE8E"}, {"name": "中国石化加油站", "district": "昌平区", "address": "百葛桥京藏高速百葛服务区西侧", "lat": "40.182308", "lng": "116.237348", "business_area": "[]", "id": "B000A83GKC"}, {"name": "中国石化恩祥加油站", "district": "昌平区", "address": "创新路5号", "lat": "40.208428", "lng": "116.240471", "business_area": "城南", "id": "B000A01A20"}, {"name": "中国石化加油站(北清路)", "district": "昌平区", "address": "回龙观镇二拔子村辛庄桥西南角", "lat": "40.093761", "lng": "116.297406", "business_area": "回龙观", "id": "B000A9EUGP"}, {"name": "中国石化加油站(南丰路)", "district": "昌平区", "address": "南丰路与景姜路交叉口东北150米", "lat": "40.186553", "lng": "116.273802", "business_area": "南邵", "id": "B0FFJDNTPK"}, {"name": "中国石化(京航加油站)", "district": "昌平区", "address": "安四路与顺沙路交叉口", "lat": "40.177866", "lng": "116.408994", "business_area": "[]", "id": "B000A860WH"}, {"name": "中国石化加油站(百善加油站)", "district": "昌平区", "address": "百善镇白沙路与顺沙路交汇处西路南", "lat": "40.169514", "lng": "116.319196", "business_area": "百善", "id": "B0FFG7VTQ6"}, {"name": "中国石化北京石油兴昌加油站", "district": "昌平区", "address": "水屯村环卫处车队附近", "lat": "40.206276", "lng": "116.224176", "business_area": "[]", "id": "B0FFF7DPUI"}, {"name": "中国石化汤顺加油站(顺沙路)", "district": "昌平区", "address": "顺沙路", "lat": "40.174130", "lng": "116.375763", "business_area": "[]", "id": "B000A9ETQ6"}, {"name": "中国石化陈庄加油站(装修中)", "district": "昌平区", "address": "G6高速陈庄出口(近陈庄村)", "lat": "40.234111", "lng": "116.166603", "business_area": "南口", "id": "B0FFG75TJG"}, {"name": "中国石化燕山上苑加油站(装修中)", "district": "昌平区", "address": "怀昌路兴寿镇下苑村路段路北,老徐苹果采摘园附近", "lat": "40.229803", "lng": "116.450195", "business_area": "兴寿", "id": "B000A7VT00"}, {"name": "中国石化百善南服务区加油站(暂停营业)", "district": "昌平区", "address": "北六环路百善镇路段百善桥西百葛服务区北侧,百善公园附近", "lat": "40.173993", "lng": "116.322297", "business_area": "百善", "id": "B000A856Y8"}, {"name": "中国石化百葛服务区加油站", "district": "昌平区", "address": "八达岭高速百葛服务区东侧", "lat": "40.181206", "lng": "116.239262", "business_area": "[]", "id": "B000A83GKE"}, {"name": "龙润石油加油站", "district": "昌平区", "address": "G6辅路g6辅路g6号附近", "lat": "40.066962", "lng": "116.322177", "business_area": "回龙观", "id": "B0FFJKBWW6"}, {"name": "北京穗联加油站", "district": "昌平区", "address": "辅路白浮南桥G6(近满白路)", "lat": "40.185553", "lng": "116.238242", "business_area": "[]", "id": "B000A83KMK"}, {"name": "中国石化土沟停车区加油站(装修中)", "district": "昌平区", "address": "高丽营镇京承高速土沟服务区内北侧", "lat": "40.129309", "lng": "116.484492", "business_area": "[]", "id": "?B0FFFTBV6J"}, {"name": "中国石化马坊加油站(立汤路)(装修中)", "district": "昌平区", "address": "北七家立汤路临31号", "lat": "40.143346", "lng": "116.410068", "business_area": "北七家", "id": "B0FFH0TH4K"}, {"name": "中图能源金泽源站(装修中)", "district": "昌平区", "address": "十三陵镇德胜口村口", "lat": "40.295771", "lng": "116.197087", "business_area": "[]", "id": "B0FFHFHJKS"}, {"name": "北京石大中油油品销售有限责任公司第二加油站", "district": "昌平区", "address": "白浮泉路4号", "lat": "40.199856", "lng": "116.231363", "business_area": "城南", "id": "B0FFJZ2QPU"}, {"name": "中国石油加油站", "district": "昌平区", "address": "定泗路599附近", "lat": "40.114226", "lng": "116.403459", "business_area": "北七家", "id": "B0FFG69YLH"}, {"name": "中国石油通达加油站", "district": "昌平区", "address": "十三陵镇万娘坟村东口国道110万娘坟村段", "lat": "40.28053", "lng": "116.213592", "business_area": "[]", "id": "B000A9ETJD"}, {"name": "中国石油加油站(昆仑路)", "district": "昌平区", "address": "昆仑路与黄河北街交汇处南100米路东", "lat": "40.16482", "lng": "116.240267", "business_area": "[]", "id": "B0FFGFRKHC"}, {"name": "中国石化百胜加油站", "district": "昌平区", "address": "百善镇东沙屯村顺沙路", "lat": "40.169088", "lng": "116.299774", "business_area": "百善", "id": "B000A80SJL"}, {"name": "华禽加油站", "district": "昌平区", "address": "东沙各庄路口北600米", "lat": "40.134398", "lng": "116.409429", "business_area": "北七家", "id": "B000A95CD6"}, {"name": "中国石化德通加油站", "district": "昌平区", "address": "定福皇庄路东78号", "lat": "40.110429", "lng": "116.285577", "business_area": "沙河", "id": "B000A95CAK"}, {"name": "中国石油加油站(回龙观加油站)", "district": "昌平区", "address": "回龙观镇回龙观村北京藏高速辅路西侧(北郊农场桥下西南角)", "lat": "40.072631", "lng": "116.314269", "business_area": "回龙观", "id": "B0FFGT3BJT"}, {"name": "中国石化王府加油站(立汤路)", "district": "昌平区", "address": "立汤路", "lat": "40.125928", "lng": "116.407656", "business_area": "北七家", "id": "B000A81AGZ"}, {"name": "中国石油中海潮加油站(珠江摩尔公元东)", "district": "昌平区", "address": "G6辅路史各庄乡辛庄桥东北角,华山丽景假日酒店附近", "lat": "40.096734", "lng": "116.298502", "business_area": "回龙观", "id": "B000A9ETWN"}, {"name": "中国石油新昌加油站", "district": "昌平区", "address": "G6辅路和G6京藏高速百沙路入口的交叉口附近", "lat": "40.138893", "lng": "116.262681", "business_area": "沙河", "id": "B000A9ETQA"}, {"name": "中国石化满井加油站", "district": "昌平区", "address": "昌平路89号", "lat": "40.146468", "lng": "116.257174", "business_area": "[]", "id": "B000A80SSA"}, {"name": "中国石化麦辛路加油站", "district": "昌平区", "address": "北石槽镇秦北路与昌金路交汇处东南角", "lat": "40.207874", "lng": "116.46087", "business_area": "[]", "id": "B000A7W3P1"}, {"name": "中国石化三阳加油站(昌平区城市管理监察大队阳坊分队东南)(装修中)", "district": "昌平区", "address": "阳八路与温南路交汇处", "lat": "40.146588", "lng": "116.13984", "business_area": "阳坊村", "id": "B000A01C5A"}, {"name": "中国石化宏路国加油站", "district": "昌平区", "address": "马池口", "lat": "40.179278", "lng": "116.170326", "business_area": "[]", "id": "B000A7W3OJ"}, {"name": "中国石油国华加油站", "district": "昌平区", "address": "定福皇庄74号", "lat": "40.113855", "lng": "116.281066", "business_area": "沙河", "id": "B000A95CKO"}, {"name": "十三陵加油站", "district": "昌平区", "address": "北大分校路附近", "lat": "40.234573", "lng": "116.211469", "business_area": "[]", "id": "B000A7W3OS"}, {"name": "中国石化和裕丰加油站", "district": "昌平区", "address": "南邵镇南丰路与南百路交叉处,金六环农业园对面", "lat": "40.186836", "lng": "116.273822", "business_area": "南邵", "id": "B000A80SJO"}, {"name": "中化道达尔昌平加油站", "district": "昌平区", "address": "京藏高速二拨子路段路西龙城花园南", "lat": "40.082978", "lng": "116.305996", "business_area": "回龙观", "id": "B0FFGM972Z"}, {"name": "中国石油华昌加油站(康长路)", "district": "昌平区", "address": "十三陵康陵园村(雪世界南边)、国道110康陵园村段", "lat": "40.262952", "lng": "116.217026", "business_area": "[]", "id": "B000A9ETWJ"}, {"name": "中福石油加油站", "district": "昌平区", "address": "兴寿镇下庄牛蹄岭,省道213牛蹄岭村段", "lat": "40.269673", "lng": "116.40076", "business_area": "[]", "id": "B0FFFVM10Q"}, {"name": "中国石化昌平北方加油站(满白路)", "district": "昌平区", "address": "满白路北方机动车检测场斜对面", "lat": "40.183736", "lng": "116.232757", "business_area": "[]", "id": "B000A7HWBL"}, {"name": "中福石油新龙加油站(建材城西路)", "district": "昌平区", "address": "建材城西路与育新南路交叉口西北角", "lat": "40.059912", "lng": "116.341798", "business_area": "西三旗", "id": "?B0FFIEE7N1"}, {"name": "美孚原厂备件专业换油中心", "district": "昌平区", "address": "立汤路364号附近", "lat": "40.127223", "lng": "116.407782", "business_area": "北七家", "id": "B0FFIBEQ9W"}, {"name": "中国石化加油站(龙禧三街)", "district": "昌平区", "address": "回龙观龙禧三街", "lat": "40.077396", "lng": "116.31341", "business_area": "回龙观", "id": "B000A9EUUO"}, {"name": "中国石化加油站", "district": "昌平区", "address": "南邵镇昌金路附近", "lat": "40.208408", "lng": "116.280779", "business_area": "南邵", "id": "B000A9ETIB"}]}